City_ID,City,Lat,Lng,Max Temp (K),Humidity,Cloudiness,Wind Speed,Country,Date
0,Bredasdorp,-34.5322,20.0403,291.4,96,76,1.21,ZA,1706672733
1,College,64.8569,-147.8028,246.14,61,75,1.54,US,1706672734
2,Vila Velha,-20.3297,-40.2925,300.12,94,0,3.6,BR,1706672734
3,Quellón,-43.1167,-73.6167,287.33,93,96,2.39,CL,1706672605
4,Bilibino,68.0546,166.4372,239.43,99,100,0.16,RU,1706672735
5,Margaret River,-33.95,115.0667,300.97,53,0,5.57,AU,1706672736
6,Port-aux-Français,-49.35,70.2167,277.17,74,88,13.7,TF,1706672686
7,Geraldton,-28.7667,114.6,317.38,11,0,5.66,AU,1706672736
8,Udachny,66.4167,112.4,247.84,75,97,1.31,RU,1706672737
9,Kavaratti,10.5669,72.642,300.77,67,16,2.76,IN,1706672735
10,Adamstown,-25.066,-130.1015,298.77,76,100,11.95,PN,1706672738
11,Poronaysk,49.2167,143.1167,259.46,83,65,1.11,RU,1706672738
12,Longyearbyen,78.2186,15.6401,268.06,63,75,5.66,SJ,1706672450
13,Constanța,44.1833,28.65,269.65,77,26,2.83,RO,1706672645
14,Mae Chai,19.346,99.814,299.44,54,30,0.98,TH,1706672740
15,Papatowai,-46.5619,169.4708,291.52,48,76,3.57,NZ,1706672740
16,Kununurra,-15.7667,128.7333,305.14,62,18,4.63,AU,1706672741
17,Naryan-Mar,67.6713,53.087,267.1,92,79,4.92,RU,1706672457
18,Djibo,14.1022,-1.6306,292.37,17,79,4.64,BF,1706672742
19,Tibati,6.4667,12.6333,291.71,26,19,1.87,CM,1706672743
20,Uturoa,-16.7333,-151.4333,302.19,74,89,5.03,PF,1706672743
21,Wailua Homesteads,22.0669,-159.378,296.59,80,75,2.06,US,1706672744
22,Saint-Joseph,-21.3667,55.6167,298.36,81,59,4.49,RE,1706672744
23,Grytviken,-54.2811,-36.5092,276.16,77,20,5.15,GS,1706672551
24,Reno,39.5296,-119.8138,285.17,58,20,2.57,US,1706672745
25,Bethel,41.3712,-73.414,274.46,77,100,3.6,US,1706672745
26,Hammerfest,70.6634,23.6821,276.4,56,20,23.15,NO,1706672745
27,Tiksi,71.6872,128.8694,246.52,97,65,1.67,RU,1706672746
28,Afaahiti,-17.75,-149.2833,302.07,79,85,3.57,PF,1706672746
29,Luanda,-8.8368,13.2343,300.15,2,75,2.06,AO,1706672747
30,Waitangi,-43.9535,-176.5597,290.83,98,100,1.79,NZ,1706672747
31,Ixtapa,20.7,-105.2,296.72,83,40,0.0,MX,1706672748
32,Chuguyevka,44.1653,133.8633,266.12,90,100,3.11,RU,1706672748
33,Cologne,50.9333,6.95,280.91,85,100,3.6,DE,1706672730
34,Lata,40.1629,-8.3327,281.44,78,99,1.94,PT,1706672749
35,Kiunga,-6.1219,141.2906,301.24,79,98,1.66,PG,1706672749
36,Avarua,-21.2078,-159.775,302.18,65,98,4.12,CK,1706672710
37,Mexico,15.0646,120.7198,302.99,53,95,6.24,PH,1706672142
38,Ribeira Grande,38.5167,-28.7,286.91,87,29,3.58,PT,1706672560
39,Vorkuta,67.5,64.0,260.0,95,100,4.16,RU,1706672751
40,Am Timan,11.0297,20.2827,294.14,23,32,2.44,TD,1706672751
41,Blackmans Bay,-43.0167,147.3167,296.22,46,84,3.57,AU,1706672688
42,Ibiza Town,38.9088,1.433,287.48,71,100,2.24,ES,1706672752
43,Iskateley,67.6803,53.1512,267.05,92,78,4.92,RU,1706672752
44,Iqaluit,63.7506,-68.5145,249.09,63,75,5.66,CA,1706672753
45,Hastings,50.8552,0.5729,280.81,31,21,2.0,GB,1706672754
46,Amga,60.8953,131.9608,243.85,90,100,0.97,RU,1706672754
47,Queenstown,-31.8976,26.8753,292.85,86,100,0.68,ZA,1706672755
48,Isafjordur,66.0755,-23.124,267.52,74,62,3.01,IS,1706672755
49,Nha Trang,12.25,109.1833,301.15,73,77,2.75,VN,1706672755
50,Enewetak,11.3474,162.3373,299.73,71,80,9.2,MH,1706672713
51,Holualoa,19.6228,-155.9522,298.06,85,75,4.12,US,1706672491
52,Invercargill,-46.4,168.35,293.16,46,98,4.02,NZ,1706672757
53,Undurkhaan,47.3194,110.6556,247.71,94,32,2.34,MN,1706672758
54,Korla,41.7597,86.1469,269.82,62,87,1.4,CN,1706672758
55,Yellowknife,62.456,-114.3525,261.44,92,100,3.6,CA,1706672571
56,Newman,37.3138,-121.0208,289.98,74,83,0.89,US,1706672759
57,Ushuaia,-54.8,-68.3,281.96,71,20,11.83,AR,1706672759
58,Hamilton,39.1834,-84.5333,276.17,95,100,3.58,US,1706672323
59,West Island,-12.1568,96.8225,303.14,66,40,2.57,CC,1706672760
60,Talnakh,69.4865,88.3972,254.93,79,100,4.49,RU,1706672761
61,Stanley,54.868,-1.6985,277.75,79,0,6.17,GB,1706672761
62,Yanchep,-31.55,115.6833,315.22,30,0,2.74,AU,1706672762
63,Koné,-21.0595,164.8658,299.08,85,89,1.03,NC,1706672762
64,Kyabé,9.4515,18.9449,295.64,21,47,2.56,TD,1706672763
65,Ajdabiya,30.7554,20.2263,281.32,75,50,3.4,LY,1706672763
66,Susuman,62.7833,148.1667,240.92,97,100,0.89,RU,1706672764
67,Hluti,-27.2167,31.6167,291.57,96,29,0.98,SZ,1706672764
68,Tindouf,27.6711,-8.1474,284.4,35,0,2.06,DZ,1706672765
69,Yuzhno-Kurilsk,44.0306,145.8556,271.14,71,100,3.05,RU,1706672765
70,Bezopasnoye,45.6483,41.936,270.23,88,89,2.6,RU,1706672766
71,Ancud,-41.8697,-73.8203,287.23,95,100,2.04,CL,1706672766
72,Puerto Natales,-51.7236,-72.4875,281.48,86,55,1.7,CL,1706672767
73,Saldanha,-33.0117,17.9442,291.18,94,97,2.52,ZA,1706672767
74,Vilyuchinsk,52.9306,158.4028,262.3,66,100,2.22,RU,1706672768
75,Keflavik,64.0049,-22.5624,270.39,93,75,11.83,IS,1706672768
76,Westport,41.1415,-73.3579,275.42,74,100,5.14,US,1706672769
77,Antofagasta,-23.65,-70.4,293.75,79,50,1.86,CL,1706672769
78,Nemuro,43.3236,145.575,271.89,71,100,4.05,JP,1706672770
79,Hermanus,-34.4187,19.2345,293.04,78,100,2.24,ZA,1706672770
80,Edinburgh of the Seven Seas,-37.0676,-12.3116,286.98,57,86,0.09,SH,1706672554
81,Gwanda,-20.9333,29.0,290.41,78,5,2.73,ZW,1706672771
82,Rāmhormoz,31.28,49.6035,288.98,56,30,2.31,IR,1706672771
83,Verkhotur'ye,58.8627,60.8054,255.85,99,58,1.22,RU,1706672671
84,Harrismith,-28.2728,29.1295,288.98,80,96,3.74,ZA,1706672772
85,Camayenne,9.535,-13.6878,299.2,89,75,2.06,GN,1706672773
86,Zhalantun,48.0,122.7167,254.41,65,13,6.98,CN,1706672773
87,Natal,-5.795,-35.2094,299.27,83,20,2.06,BR,1706672582
88,Crane,31.3974,-102.3501,287.41,41,35,3.22,US,1706672774
89,Albany,42.6001,-73.9662,272.69,85,100,2.22,US,1706672528
90,Polyarny,69.1989,33.4478,273.99,73,100,14.77,RU,1706672775
91,Lubang,13.8584,120.124,299.68,79,99,9.24,PH,1706672775
92,Puerto Ayora,-0.7393,-90.3518,298.38,88,95,4.19,EC,1706672694
93,Ponta Delgada,37.7333,-25.6667,287.55,88,40,1.54,PT,1706672644
94,Sisimiut,66.9395,-53.6735,253.6,72,100,7.09,GL,1706672561
95,Pitimbu,-7.4706,-34.8086,298.48,74,6,3.6,BR,1706672777
96,Olonkinbyen,70.9221,-8.7187,269.18,75,100,6.58,SJ,1706672778
97,Vadsø,70.0744,29.7487,276.24,65,20,15.43,NO,1706672778
98,Usinsk,65.9939,57.5281,267.63,94,100,4.92,RU,1706672779
99,Lebu,-37.6167,-73.65,287.74,85,0,5.99,CL,1706672572
100,Sri Dūngargarh,28.0833,74.0167,293.68,32,55,3.93,IN,1706672779
101,Punta Arenas,-53.15,-70.9167,282.21,66,0,3.6,CL,1706672780
102,San Patricio,28.017,-97.5169,288.62,66,100,2.39,US,1706672780
103,Barcelos,41.5388,-8.6151,286.86,72,100,2.36,PT,1706672781
104,Villa Yapacaní,-17.4,-63.8333,296.45,97,99,1.69,BO,1706672781
105,Ilulissat,69.2167,-51.1,250.16,45,18,2.06,GL,1706672782
106,Klyuchi,52.2667,79.1667,261.15,89,100,2.79,RU,1706672782
107,Greater Sudbury,46.49,-80.99,273.18,97,100,0.45,CA,1706672751
108,East London,-33.0153,27.9116,295.67,88,75,2.57,ZA,1706672783
109,Chonchi,-42.6128,-73.8092,289.33,97,99,0.97,CL,1706672784
110,Santa Terezinha,-29.9002,-50.0904,292.95,83,7,2.99,BR,1706672785
111,Utrik,11.2278,169.8474,299.31,78,100,7.35,MH,1706672785
112,Seydi,39.4816,62.9137,272.83,67,80,2.63,TM,1706672785
113,Mitsamiouli,-11.3847,43.2844,300.36,72,83,2.33,KM,1706672786
114,Sitka,57.0531,-135.33,276.09,52,75,3.6,US,1706672786
115,Byron Bay,-28.65,153.6167,301.88,61,93,4.48,AU,1706672787
116,Le Port,-20.9373,55.2919,300.13,74,52,1.53,RE,1706672787
117,Alto Barinas,8.5931,-70.2261,301.08,40,45,1.48,VE,1706672788
118,Nuuk,64.1835,-51.7216,264.49,67,100,7.2,GL,1706672788
119,Carbonear,47.7332,-53.2148,268.79,80,98,6.61,CA,1706672789
120,Port Elizabeth,-33.918,25.5701,294.44,88,0,2.57,ZA,1706672789
121,George Town,5.4112,100.3354,305.9,63,20,2.24,MY,1706672790
122,Cockburn Town,21.4612,-71.1419,296.91,57,3,3.71,TC,1706672791
123,Sittwe,20.15,92.9,295.58,42,1,1.26,MM,1706672791
124,Tôlanaro,-25.0319,46.9987,296.19,88,75,4.12,MG,1706672500
125,Mount Gambier,-37.8333,140.7667,295.27,46,3,4.72,AU,1706672792
126,Whitehorse,60.7161,-135.0538,270.58,50,20,4.12,CA,1706672590
127,Aral,40.5156,81.2636,272.21,44,100,1.55,CN,1706672793
128,Khandyga,62.6667,135.6,236.41,95,96,0.2,RU,1706672503
129,Sinop Province,41.7711,34.8709,273.34,89,97,0.81,TR,1706672794
130,Glace Bay,46.1969,-59.957,268.03,76,40,4.02,CA,1706672794
131,Lompoc,34.6391,-120.4579,287.0,86,0,0.0,US,1706672795
132,Neryungri,56.6709,124.6491,247.81,90,79,2.91,RU,1706672795
133,Miðvágur,62.0511,-7.1939,280.61,100,100,8.75,FO,1706672796
134,Arnö,60.1167,18.6333,274.7,100,100,2.41,SE,1706672796
135,Phan Rang-Thap Cham,11.5667,108.9833,303.1,53,60,5.16,VN,1706672797
136,Tsiombe,-25.3,45.4833,297.57,78,91,6.44,MG,1706672797
137,Port Macquarie,-31.4333,152.9167,300.87,65,43,4.18,AU,1706672798
138,Lerwick,60.1545,-1.1494,281.15,81,100,15.52,GB,1706672798
139,Sangīn,32.0728,64.8359,282.66,40,99,4.75,AF,1706672799
140,Afgooye,2.1381,45.1212,297.34,81,82,4.74,SO,1706672799
141,Finisterra,42.9049,-9.2629,283.16,78,100,2.12,ES,1706672799
142,Wynyard,-41.0,145.7167,296.35,30,7,4.98,AU,1706672557
143,Kirakira,-10.4544,161.9205,301.71,80,100,5.03,SB,1706672800
144,Atafu Village,-8.5421,-172.5159,302.48,71,17,2.28,TK,1706672801
145,Ouarzazate,30.9189,-6.8934,279.31,26,0,1.54,MA,1706672801
146,Trenggalek,-8.05,111.7167,304.13,68,18,0.18,ID,1706672802
147,Kingston,17.997,-76.7936,298.68,86,20,6.17,JM,1706672781
148,Rio Grande,-32.035,-52.0986,293.85,89,11,2.05,BR,1706672553
149,Huarmey,-10.0681,-78.1522,297.28,81,100,2.36,PE,1706672803
150,Bentiu,9.2333,29.8333,294.66,19,70,2.64,SS,1706672804
151,Torghay,49.6339,63.4981,262.53,96,97,4.39,KZ,1706672658
152,Ust-Tsilma,65.441,52.1498,264.6,96,97,2.24,RU,1706672805
153,Phalia,32.4297,73.5775,287.67,63,87,3.8,PK,1706672805
154,Ado-Odo,6.6,2.9333,300.27,92,65,1.2,NG,1706672805
155,Touros,-5.1989,-35.4608,300.36,71,35,4.65,BR,1706672806
156,Jamaame,0.0697,42.745,298.94,83,99,3.27,SO,1706672806
157,Bambanglipuro,-7.95,110.2833,303.81,64,46,2.6,ID,1706672807
158,Bélabo,4.9333,13.3,291.15,36,77,1.05,CM,1706672807
159,Dudinka,69.4058,86.1778,255.16,84,100,9.39,RU,1706672808
160,Sotouboua,8.5667,0.9833,300.17,26,47,1.03,TG,1706672808
161,Ngereklmadel,7.4883,134.4856,302.2,74,75,8.23,PW,1706672809
162,Hawaiian Paradise Park,19.5933,-154.9731,299.88,83,100,3.09,US,1706672698
163,Novy Urengoy,66.0833,76.6333,250.22,97,59,6.2,RU,1706672809
164,Ust'-Kut,56.7938,105.7672,248.13,91,33,0.5,RU,1706672810
165,Tcholliré,8.4022,14.1698,292.93,22,15,0.73,CM,1706672810
166,Korsakov,46.6328,142.7813,267.06,83,98,1.02,RU,1706672811
167,Calipatria,33.1256,-115.5142,292.42,50,63,1.05,US,1706672811
168,Nagqu Prefecture,31.5,92.0,266.81,32,69,5.44,CN,1706672812
169,Chiredzi,-21.05,31.6667,293.63,93,49,2.54,ZW,1706672812
170,Saipan,15.1355,145.701,300.54,61,40,8.75,MP,1706672813
171,Walvis Bay,-22.9575,14.5053,290.68,100,3,4.12,NA,1706672813
172,Tazovsky,67.4667,78.7,251.2,94,73,6.09,RU,1706672814
173,Carthage,36.8611,10.3316,277.89,100,20,0.51,TN,1706672814
174,Ocean Shores,46.9737,-124.1563,287.05,93,100,5.66,US,1706672815
175,Tripoli,32.8752,13.1875,286.96,58,59,5.22,LY,1706672815
176,Thompson,55.7435,-97.8558,274.24,93,100,1.03,CA,1706672764
177,Saint-Pierre,-21.3393,55.4781,298.97,78,0,1.54,RE,1706672816
178,Mar del Plata,-38.0023,-57.5575,297.01,85,0,3.09,AR,1706672790
179,Arraial do Cabo,-22.9661,-42.0278,298.01,92,42,3.22,BR,1706672817
180,Dyurtyuli,55.4911,54.8688,271.29,89,99,7.24,RU,1706672818
181,Kampung Simpang Renggam,1.8278,103.3,304.79,61,89,3.2,MY,1706672818
182,Pemba,-12.974,40.5178,296.54,100,75,3.6,MZ,1706672819
183,Erenhot,43.6475,111.9767,254.5,83,6,2.23,CN,1706672819
184,Karratha,-20.7377,116.8463,305.06,52,44,5.37,AU,1706672820
185,Bandarbeyla,9.4942,50.8122,298.36,66,91,3.9,SO,1706672820
186,Tsengel,49.4783,100.8894,252.32,87,46,1.14,MN,1706672821
187,Banda Aceh,5.5577,95.3222,302.51,70,58,5.73,ID,1706672821
188,Wau,7.7029,27.9953,294.26,22,77,2.67,SS,1706672822
189,Lhasa,29.65,91.1,271.76,47,34,2.16,CN,1706672691
190,Emerald,-23.5333,148.1667,307.67,48,81,2.5,AU,1706672820
191,Dehlorān,32.6941,47.2679,286.37,47,0,2.14,IR,1706672823
192,Lihue,21.9789,-159.3672,296.92,76,75,2.06,US,1706672805
193,Al Bawīţī,28.3492,28.8659,280.84,54,12,3.62,EG,1706672824
194,Borgarnes,64.5383,-21.9206,270.18,80,100,1.61,IS,1706672824
195,Chālūs,36.655,51.4204,279.85,87,75,0.0,IR,1706672825
196,Massenya,11.4039,16.1705,292.15,20,1,4.4,TD,1706672825
197,Shingū,33.7333,135.9833,285.2,88,100,1.83,JP,1706672826
198,Chui,-33.6971,-53.4616,291.18,91,0,2.55,UY,1706672826
199,Tinajo,29.0788,-13.7081,291.64,48,0,4.12,ES,1706672827
200,Tshabong,-26.05,22.45,297.45,57,98,2.99,BW,1706672827
201,Piti Village,13.4626,144.6933,302.64,58,100,10.29,GU,1706672828
202,Sarina,-21.4333,149.2167,306.08,1,65,3.62,AU,1706672828
203,Novodvinsk,64.4165,40.8122,273.03,87,78,3.95,RU,1706672829
204,Petropavlovsk-Kamchatskiy,53.0452,158.6483,261.48,70,75,4.0,RU,1706672733
205,Nova Sintra,14.8667,-24.7167,294.04,60,0,5.24,CV,1706672829
206,Carutapera,-1.195,-46.02,298.97,87,68,2.69,BR,1706672830
207,Lyantonde,-0.4031,31.1572,292.14,80,100,0.7,UG,1706672830
208,Thunder Bay,48.4001,-89.3168,274.14,86,75,3.09,CA,1706672568
209,Xuanzhou,30.9525,118.7553,286.37,85,97,1.92,CN,1706672831
210,Bayanhongor,46.7167,100.1167,253.52,80,32,0.64,MN,1706672832
211,Fonte Boa,-2.4959,-66.2662,299.44,81,100,1.21,BR,1706672832
212,Aasiaat,68.7098,-52.8699,243.94,94,60,5.77,GL,1706672833
213,Kailua-Kona,19.6406,-155.9956,300.13,84,75,4.12,US,1706672817
214,Howrah,22.5892,88.3103,295.42,88,75,0.0,IN,1706672833
215,Puerto Aisén,-45.4,-72.7,287.13,99,100,2.19,CL,1706672834
216,Uspenskoye,44.8311,41.3927,269.1,77,52,1.25,RU,1706672834
217,Sabang,5.8933,95.3214,301.32,76,49,8.8,ID,1706672834
218,Villa Gesell,-37.2639,-56.973,293.74,74,82,4.32,AR,1706672835
219,Kerikeri,-35.2268,173.9474,295.94,69,65,2.15,NZ,1706672835
220,Balnearia,-31.0088,-62.6673,298.01,62,25,3.72,AR,1706672835
221,Obiaruku,5.8467,6.1526,297.55,92,66,1.34,NG,1706672836
222,Pandan,14.0453,124.1694,300.36,68,99,7.15,PH,1706672836
223,Yeed,4.55,43.0333,297.17,60,17,4.98,SO,1706672836
224,Merizo Village,13.2658,144.6691,302.46,65,39,9.91,GU,1706672837
225,Kurye,35.2094,127.4644,285.6,71,35,1.68,KR,1706672837
226,Saint John,45.2727,-66.0677,264.15,85,20,0.0,CA,1706672838
227,Kismayo,-0.3582,42.5454,299.57,83,96,5.29,SO,1706672838
228,Celestún,20.8667,-90.4,292.64,65,1,4.31,MX,1706672838
229,Lock Haven,41.137,-77.4469,275.72,79,100,1.9,US,1706672671
230,Sauk Village,41.4884,-87.5675,277.07,88,100,5.14,US,1706672657
231,Española,35.9911,-106.0806,281.39,63,77,0.29,US,1706672839
232,Rengāli,21.6333,84.05,295.41,38,82,1.16,IN,1706672840
233,Maragogi,-9.0122,-35.2225,298.17,76,4,1.88,BR,1706672840
234,Guarapari,-20.6667,-40.4975,299.76,88,100,2.29,BR,1706672840
235,Fort Bragg,35.139,-79.006,282.06,78,100,2.57,US,1706672841
236,Distrikt Paramaribo,5.8667,-55.1667,299.18,81,60,4.24,SR,1706672841
237,Boyolangu,-8.1181,111.8935,304.06,65,14,0.66,ID,1706672841
238,Guiuan,11.0333,125.7247,300.14,78,100,10.26,PH,1706672842
239,Lesnoy,57.6198,63.0784,264.04,96,100,1.91,RU,1706672842
240,Dubovka,49.0583,44.829,271.68,94,99,2.62,RU,1706672842
241,Mayiladuthurai,11.1,79.6667,299.08,76,98,3.48,IN,1706672843
242,Egilsstadir,65.2653,-14.3948,270.1,74,0,2.57,IS,1706672843
243,Kuanda,56.3161,116.0806,243.62,93,48,0.88,RU,1706672843
244,Lubumbashi,-11.6609,27.4794,289.39,97,15,1.01,CD,1706672844
245,Adorf,50.3167,12.2667,279.27,97,100,1.56,DE,1706672844
246,Houghton,47.1219,-88.569,274.86,89,100,4.63,US,1706672700
247,New Plymouth,-39.0667,174.0833,295.55,75,66,4.19,NZ,1706672845
248,Waiuku,-37.25,174.75,299.96,59,62,4.21,NZ,1706672845
249,Anadyr,64.75,177.4833,240.43,74,0,4.0,RU,1706672705
250,Bonthe,7.5264,-12.505,298.47,90,59,0.92,SL,1706672846
251,Diamantino,-14.4086,-56.4461,296.62,82,38,0.76,BR,1706672846
252,Ivdel',60.6911,60.4206,264.37,98,93,1.34,RU,1706672846
253,Kitimat,54.0524,-128.6534,279.36,64,100,1.34,CA,1706672847
254,Magong,23.5654,119.5863,293.1,87,21,5.08,TW,1706672847
255,Eureka,40.8021,-124.1637,292.49,29,100,5.36,US,1706672848
256,Masterton,-40.9597,175.6575,295.86,54,82,1.65,NZ,1706672711
257,Hargeisa,9.56,44.065,289.66,92,91,5.79,SO,1706672848
258,Mīzan Teferī,6.9833,35.5833,291.36,83,99,1.24,ET,1706672849
259,Jerome,42.7241,-114.5186,279.61,78,0,8.23,US,1706672849
260,Hadibu,12.65,54.0333,297.52,75,93,1.65,YE,1706672850
261,Villa de San Antonio,14.3167,-87.6167,289.84,97,65,2.32,HN,1706672850
262,Mana,5.6592,-53.7767,298.67,85,18,4.22,GF,1706672851
263,Haiku-Pauwela,20.9219,-156.3051,295.1,93,75,3.09,US,1706672851
264,Kidal,18.4411,1.4078,289.21,27,0,5.34,ML,1706672851
265,Bac Lieu,9.285,105.7244,302.12,62,59,7.52,VN,1706672852
266,Kurri Kurri,-32.8167,151.4833,302.41,78,30,5.09,AU,1706672852
267,Hithadhoo,-0.6,73.0833,300.7,74,24,2.08,MV,1706672853
268,Beledweyne,4.7358,45.2036,295.9,76,72,6.42,SO,1706672853
269,Akureyri,65.6835,-18.0878,269.11,86,0,4.63,IS,1706672853
270,Labytnangi,66.6572,66.4183,257.07,97,100,2.02,RU,1706672733
271,Badger,64.8,-147.5333,246.1,71,40,1.54,US,1706672854
272,Okhotsk,59.3833,143.3,254.18,78,38,6.15,RU,1706672855
273,Inari,68.906,27.0288,274.26,73,100,9.33,FI,1706672855
274,Charters Towers,-20.1,146.2667,309.65,38,83,2.53,AU,1706672855
275,New Norfolk,-42.7826,147.0587,296.88,29,85,2.76,AU,1706672856
276,Takaungu,-3.6837,39.8566,299.42,83,100,2.7,KE,1706672856
277,Jishou,28.3167,109.7167,281.88,95,100,0.79,CN,1706672857
278,Mogocha,53.7333,119.7667,255.44,70,93,2.5,RU,1706672857
279,Daru,-9.0763,143.2092,302.14,79,99,3.84,PG,1706672858
280,Belyy Yar,53.6039,91.3903,251.09,84,40,0.0,RU,1706672858
281,Pāvilosta,56.8879,21.1859,277.1,92,100,6.9,LV,1706672858
282,Vernon,50.2581,-119.2691,279.98,93,100,0.89,CA,1706672859
283,Alice Springs,-23.7,133.8833,311.05,15,72,9.26,AU,1706672851
284,Port Mathurin,-19.6833,63.4167,300.66,81,100,8.58,MU,1706672725
285,Happy Valley-Goose Bay,53.3168,-60.3315,258.32,56,20,4.63,CA,1706672860
286,Morón,-34.6534,-58.6198,302.02,69,0,1.79,AR,1706672861
287,Beira,-19.8436,34.8389,300.2,83,75,3.6,MZ,1706672865
288,Palmer,42.1584,-72.3287,271.8,77,100,1.54,US,1706672858
289,Puerto Baquerizo Moreno,-0.9,-89.6,298.43,87,89,5.22,EC,1706672866
290,Isangel,-19.55,169.2667,300.07,74,44,2.03,VU,1706672867
291,Ust-Nera,64.5667,143.2,243.86,97,100,2.15,RU,1706672867
292,Malé,4.1748,73.5089,300.57,75,43,5.89,MV,1706672868
293,Coquimbo,-29.9533,-71.3436,291.0,88,100,2.06,CL,1706672868
294,Bridgewater,44.3835,-64.5155,266.97,73,46,2.57,CA,1706672869
295,Jamestown,42.097,-79.2353,274.92,91,100,2.57,US,1706672721
296,Cardoso,-20.0819,-49.9142,297.38,43,98,1.22,BR,1706672870
297,Ad Dilam,23.9915,47.1627,291.38,36,98,4.02,SA,1706672871
298,Port Alfred,-33.5906,26.891,294.36,94,100,0.45,ZA,1706672871
299,Port Saint John's,-31.6229,29.5448,295.46,92,61,4.44,ZA,1706672872
300,Santo Antônio do Içá,-3.1022,-67.9397,297.93,91,99,0.39,BR,1706672872
301,Bardai,11.65,7.2333,291.11,19,35,5.79,NG,1706672873
302,Sur,22.5667,59.5289,297.19,67,100,1.87,OM,1706672873
303,Mahibadhoo,3.7833,72.9667,299.99,79,85,5.03,MV,1706672874
304,Luang Prabang,19.8856,102.1347,296.13,78,75,1.03,LA,1706672874
305,Kill Devil Hills,36.0307,-75.676,280.36,87,0,4.12,US,1706672875
306,Santiago de Cao,-7.9589,-79.2392,297.22,78,100,3.6,PE,1706672875
307,Ixtlahuacán del Río,20.8667,-103.25,287.07,31,100,0.76,MX,1706672876
308,Lā‘ie,21.6477,-157.9253,299.13,76,22,0.45,US,1706672876
309,Nouadhibou,20.931,-17.0347,291.14,55,0,6.69,MR,1706672877
310,Bengkulu,-3.8004,102.2655,302.35,68,100,1.57,ID,1706672877
311,Agadir,30.4202,-9.5982,285.4,27,100,4.94,MA,1706672878
312,Labrador City,52.9463,-66.9114,262.69,64,100,8.75,CA,1706672878
313,Bonnyville,54.2668,-110.735,279.04,65,9,6.28,CA,1706672878
314,Singkil,-7.9855,111.4161,303.31,70,19,1.48,ID,1706672879
315,Los Altos,37.3852,-122.1141,290.12,62,100,4.63,US,1706672779
316,Novyy Urgal,51.0736,132.5642,248.9,84,96,0.29,RU,1706672880
317,Mossamedes,-15.1961,12.1522,297.31,81,15,1.51,AO,1706672880
318,Dhidhdhoo,6.8833,73.1,301.12,73,74,3.36,MV,1706672881
319,Rājgarh,28.6333,75.3833,290.12,51,89,4.47,IN,1706672881
320,Martil,35.6166,-5.2752,289.13,77,92,6.69,MA,1706672882
321,Keminmaa,65.8596,24.8228,272.02,93,100,9.77,FI,1706672882
322,Kupiansk,49.7209,37.5998,269.96,89,100,1.92,UA,1706672883
323,Usogorsk,63.4106,48.6872,268.52,96,97,3.2,RU,1706672883
324,Nikolayevsk-on-Amur,53.1406,140.73,256.91,80,84,4.01,RU,1706672884
325,Pangody,65.85,74.4859,250.63,94,16,6.56,RU,1706672884
326,Chokwé,-24.5333,32.9833,295.11,89,67,2.61,MZ,1706672885
327,Mount Isa,-20.7333,139.5,300.02,83,100,7.72,AU,1706672885
328,Penzance,50.1186,-5.5371,280.53,75,18,5.77,GB,1706672816
329,Kruisfontein,-34.0033,24.7314,292.53,75,100,3.01,ZA,1706672886
330,Tangalle,6.024,80.7911,301.24,75,43,2.34,LK,1706672851
331,Las Khorey,11.1595,48.1967,297.27,78,45,0.5,SO,1706672887
332,Raduzhny,62.0961,77.475,251.34,97,84,4.11,RU,1706672887
333,Quelimane,-17.8786,36.8883,297.12,94,75,0.0,MZ,1706672888
334,Villa Ojo de Agua,-29.5,-63.6938,295.22,52,41,4.06,AR,1706672888
335,Boromo,11.75,-2.9333,295.87,18,82,2.99,BF,1706672889
336,Terrace,54.5163,-128.6035,279.1,93,75,4.63,CA,1706672889
337,Vostochnyy,55.8167,37.8667,272.3,100,100,1.55,RU,1706672890
338,Cecerleg,47.475,101.4542,257.22,70,7,0.61,MN,1706672890
339,Hoemul-li,41.4339,129.67,274.9,66,14,2.08,KP,1706672891
340,Saint Paul Harbor,57.79,-152.4072,261.88,48,0,0.0,US,1706672892
341,Majene,-3.5403,118.9707,304.57,61,92,3.94,ID,1706672892
342,St. John's,47.5649,-52.7093,268.59,82,100,7.6,CA,1706672598
343,Codrington,-38.2667,141.9667,293.14,58,39,5.92,AU,1706672893
344,Grand Falls-Windsor,48.9332,-55.6649,254.54,83,7,1.31,CA,1706672894
345,Fort St. John,56.2499,-120.8529,278.09,60,20,7.2,CA,1706672894
346,Fabens,31.5023,-106.1586,290.77,31,100,1.47,US,1706672894
347,Shimoda,34.6667,138.95,288.21,85,60,6.89,JP,1706672895
348,Rémire-Montjoly,4.9167,-52.2667,299.17,100,100,2.06,GF,1706672864
349,Roboré,-18.3333,-59.75,297.32,76,12,2.15,BO,1706672896
350,Pariaman,-0.619,100.12,304.18,61,98,1.72,ID,1706672896
351,Qurayyat,31.3318,37.3428,276.25,70,40,0.0,SA,1706672897
352,Puerto Gaitán,4.3133,-72.0816,302.71,45,68,2.44,CO,1706672897
353,Roskoshnoye,48.5074,39.3004,271.8,86,92,2.16,UA,1706672897
354,Papao,-17.75,-149.55,302.96,81,85,3.22,PF,1706672898
355,Prado,-17.3411,-39.2208,297.44,93,95,3.16,BR,1706672898
356,Suicheng,33.8963,117.9331,279.97,89,100,3.41,CN,1706672899
357,Tanjung Pandan,-2.75,107.65,299.42,86,100,1.75,ID,1706672899
358,Kapaa,22.0752,-159.319,297.33,76,75,2.06,US,1706672900
359,Alula,11.9661,50.7569,297.86,70,35,3.78,SO,1706672900
360,Slave Lake,55.2834,-114.769,281.14,42,0,13.89,CA,1706672900
361,Pyt-Yakh,60.7499,72.8582,254.07,95,99,3.65,RU,1706672901
362,Areal,-22.2306,-43.1056,294.42,84,63,0.74,BR,1706672901
363,Artyom,40.4723,50.333,274.23,76,8,2.81,AZ,1706672901
364,Merca,1.7159,44.7717,298.96,79,66,6.48,SO,1706672902
365,Santana,-0.0583,-51.1817,300.25,89,0,2.06,BR,1706672902
366,Rundu,-17.9333,19.7667,292.22,91,99,1.51,NA,1706672903
367,Valparaíso,-33.0393,-71.6273,292.86,76,40,2.06,CL,1706672903
368,Lobujya,27.95,86.8167,260.13,43,0,2.15,NP,1706672904
369,Carnarvon,-24.8667,113.6333,309.36,38,0,4.32,AU,1706672904
370,Tahe,52.3333,124.7333,253.04,77,89,3.95,CN,1706672904
371,Cape Canaveral,28.4058,-80.6048,288.15,71,100,5.66,US,1706672905
372,Lākshām,23.2472,91.1425,296.7,33,100,1.55,BD,1706672905
373,Florence,43.7667,11.25,280.98,45,98,0.67,IT,1706672906
374,Kalmunai,7.4167,81.8167,300.26,81,8,2.52,LK,1706672906
375,Qaqortoq,60.7167,-46.0333,259.95,94,100,5.77,GL,1706672906
376,Hauterive,46.0901,3.4459,279.26,92,52,1.15,FR,1706672907
377,Taylors,34.9204,-82.2962,282.3,74,100,1.34,US,1706672907
378,Salinópolis,-0.6136,-47.3561,299.63,85,100,4.16,BR,1706672907
379,Kayamkulam,9.1833,76.5,303.13,66,64,0.72,IN,1706672908
380,Toliara,-23.35,43.6667,298.81,64,6,6.08,MG,1706672908
381,Ust'-Barguzin,53.45,108.9833,250.12,85,12,1.69,RU,1706672909
382,Kingaroy,-26.5333,151.8333,301.68,52,7,5.64,AU,1706672909
383,Tura,25.5198,90.2201,295.69,33,0,0.81,IN,1706672909
384,Tongliao,43.6125,122.2653,258.37,57,6,5.8,CN,1706672910
385,Puerto Madryn,-42.7692,-65.0385,297.03,57,2,4.46,AR,1706672910
386,Muli,2.9167,73.5667,300.06,80,49,3.32,MV,1706672911
387,Vorgashor,67.5833,63.95,259.89,95,100,4.5,RU,1706672911
388,Çayeli,41.0923,40.7292,277.72,61,8,1.65,TR,1706672912
389,Selfoss,63.9331,-20.9971,269.84,77,100,3.26,IS,1706672912
390,Puerto San José,13.9256,-90.8244,298.01,72,3,1.79,GT,1706672912
391,Tammela,60.8104,23.7682,274.92,98,100,3.52,FI,1706672913
392,Kaliua,-5.0606,31.7936,291.64,96,100,1.4,TZ,1706672913
393,Vermillion,42.7794,-96.9292,273.24,99,35,1.95,US,1706672914
394,St Albans,51.75,-0.3333,280.54,78,100,3.6,GB,1706672914
395,Ad Dawādimī,24.5077,44.3924,282.79,35,10,2.88,SA,1706672914
396,Isla Mujeres,21.2311,-86.731,289.18,72,6,4.02,MX,1706672915
397,Saint-Philippe,-21.3585,55.7679,298.92,84,58,4.54,RE,1706672915
398,Port Lincoln,-34.7333,135.8667,293.55,56,0,5.39,AU,1706672916
399,Edd,13.9297,41.6925,297.72,88,96,3.71,ER,1706672916
400,San Luis de la Loma,17.2706,-100.8939,298.13,78,100,1.11,MX,1706672916
401,Island Harbour,50.724,-1.2758,280.89,82,13,0.45,GB,1706672917
402,Sosnovo-Ozerskoye,52.5249,111.5418,248.18,88,80,2.66,RU,1706672917
403,Zouérat,22.7187,-12.4521,288.81,13,0,3.6,MR,1706672917
404,Lüderitz,-26.6481,15.1594,291.36,85,0,4.34,NA,1706672918
405,Wanlaweyn,2.6185,44.8938,296.65,79,83,4.56,SO,1706672919
406,Magadan,59.5667,150.8,251.29,83,6,1.7,RU,1706672919
407,Bannockburn,56.0898,-3.9109,279.94,81,100,9.32,GB,1706672920
408,East Florence,34.8095,-87.6495,282.1,75,0,1.54,US,1706672920
409,Ust'-Ilimsk,58.0006,102.6619,246.17,87,33,0.87,RU,1706672893
410,Princeville,45.7668,-61.2985,267.85,85,0,2.57,CA,1706672921
411,La Ronge,55.1001,-105.2842,279.29,52,0,4.12,CA,1706672921
412,Nyurba,63.2842,118.3319,249.5,96,100,1.36,RU,1706672922
413,Guerrero Negro,27.9769,-114.0611,291.14,66,0,3.63,MX,1706672760
414,Izluchinsk,60.9794,76.9242,250.16,96,98,4.86,RU,1706672923
415,Cabrero,-37.0333,-72.4,291.83,45,0,4.82,CL,1706672923
416,Pisco,-13.7,-76.2167,297.18,78,40,6.17,PE,1706672924
417,Cambria,35.5641,-121.0808,287.58,95,48,2.17,US,1706672924
418,La Santisima Trinidad,-14.8333,-64.9,296.98,94,68,1.02,BO,1706672924
419,Kaura Namoda,12.5898,6.5779,292.71,19,2,5.6,NG,1706672925
420,Tokār,18.4254,37.729,295.06,68,100,5.04,SD,1706672925
421,Ode,7.7899,5.7117,296.49,28,53,0.6,NG,1706672926
422,Port Isabel,26.0734,-97.2086,288.17,94,0,2.06,US,1706672926
423,Hilton Head,32.2163,-80.7526,283.14,78,0,2.06,US,1706672723
424,Popondetta,-8.7537,148.2534,305.2,64,76,3.17,PG,1706672927
425,Myskhako,44.6714,37.7433,274.03,69,29,3.6,RU,1706672927
426,Campo Verde,-20.4167,-54.0667,296.98,65,35,2.56,BR,1706672928
427,Pukchil-lodongjagu,40.2019,125.7483,274.45,76,98,1.15,KP,1706672928
428,Nobres,-14.7203,-56.3275,296.35,87,79,1.23,BR,1706672929
429,Nguigmi,14.2495,13.1092,290.3,30,0,7.06,NE,1706672929
430,Tongren,27.7172,109.1853,282.1,95,100,1.14,CN,1706672929
431,Distrikt Brokopondo,4.75,-55.1667,298.11,88,66,3.67,SR,1706672930
432,Nampula,-15.1165,39.2666,296.12,94,75,0.0,MZ,1706672930
433,Reggane,26.7158,0.1714,287.91,36,0,6.94,DZ,1706672931
434,Moraleja,40.0162,-6.6977,280.73,85,97,1.36,ES,1706672931
435,Gizo Government Station,-8.103,156.8419,301.95,73,95,5.54,SB,1706672931
436,Riyadh,24.6877,46.7219,290.23,44,59,3.54,SA,1706672819
437,Seaford,50.7714,0.1027,281.18,75,23,0.45,GB,1706672702
438,Al Mahwit,15.4701,43.5448,285.99,92,89,0.56,YE,1706672932
439,Zaranj,30.9667,61.8833,280.13,56,81,9.54,AF,1706672933
440,Ambāgarh Chauki,20.7833,80.7167,296.72,38,99,1.71,IN,1706672933
441,Sauðarkrokur,65.7461,-19.6394,267.85,86,95,4.44,IS,1706672934
442,Iida,35.5197,137.8207,281.37,64,89,1.67,JP,1706672935
443,La Huacana,18.9667,-101.8167,297.36,52,100,0.68,MX,1706672935
444,Portland,45.5234,-122.6762,287.04,73,100,5.81,US,1706672556
445,Buckingham,51.9997,-0.9878,278.94,86,52,0.89,GB,1706672936
446,Bartica,6.4,-58.6167,299.33,99,71,0.64,GY,1706672937
447,Malpe,13.35,74.7167,298.76,59,12,1.03,IN,1706672937
448,Ilebo,-4.3167,20.5833,294.87,99,100,0.61,CD,1706672938
449,Tashla,51.7716,52.7427,271.53,79,96,8.67,RU,1706672938
450,Lautoka,-17.6167,177.4667,302.07,79,75,4.63,FJ,1706672939
451,Lázaro Cárdenas,17.9583,-102.2,298.38,75,100,1.45,MX,1706672907
452,Annau,37.8876,58.516,273.87,69,100,3.09,TM,1706672939
453,Kingisepp,59.3733,28.6134,274.48,93,100,3.09,RU,1706672940
454,Shanhaiguan,39.9988,119.7564,269.07,36,78,8.57,CN,1706672940
455,Ayoun El Atrous,16.6614,-9.6149,290.71,15,59,4.7,MR,1706672941
456,Nālūt,30.3333,10.85,279.18,72,27,3.72,LY,1706672941
457,Port Blair,11.6667,92.75,302.17,74,75,3.6,IN,1706672942
458,Mount Pearl,47.5166,-52.7813,268.07,84,100,7.2,CA,1706672942
459,Bamboo Flat,11.7,92.7167,302.2,74,75,3.6,IN,1706672942
460,Smara,26.7384,-11.6719,289.39,23,34,5.38,EH,1706672943
461,Minas de Marcona,-15.2119,-75.1103,291.86,82,100,4.3,PE,1706672943
462,Buala,-8.145,159.5921,301.97,77,99,4.28,SB,1706672944
463,Midland,31.9974,-102.0779,287.39,46,0,1.54,US,1706672827
464,La Passe,45.5549,-0.8967,279.28,91,91,2.31,FR,1706672945
465,Fushun,41.8558,123.9233,261.99,72,47,4.36,CN,1706672945
466,San Antonio de Palé,-1.4014,5.6325,301.08,77,99,2.55,GQ,1706672945
467,Victorica,-36.2151,-65.4359,296.12,67,94,8.34,AR,1706672946
468,Yangambi,0.8102,24.4336,295.65,78,100,0.77,CD,1706672946
469,Nevel'sk,46.6733,141.8633,268.16,60,100,2.9,RU,1706672947
470,Ceeldheer,3.8488,47.1806,297.6,80,96,5.61,SO,1706672947
471,Kuvandyk,51.4781,57.3552,264.99,94,100,4.27,RU,1706672947
472,Rupert,42.6191,-113.6772,276.12,87,0,1.54,US,1706672948
473,Fale old settlement,-9.3852,-171.2468,302.89,68,26,1.34,TK,1706672948
474,Tazacorte,28.629,-17.9293,291.57,29,0,4.92,ES,1706672949
475,Fairmont,39.4851,-80.1426,278.66,81,100,0.82,US,1706672949
476,Borogontsy,62.6683,131.1683,240.4,93,33,0.42,RU,1706672950
477,Stornoway,58.2093,-6.3865,282.13,83,100,20.06,GB,1706672951
478,Sylva,58.0348,56.7635,271.8,91,98,4.58,RU,1706672951
479,Staroaleyskoye,51.0061,82.0,263.33,83,100,2.62,RU,1706672952
480,Weno,7.4515,151.8468,303.12,66,100,5.14,FM,1706672952
481,Bokovskaya,49.229,41.8306,268.63,96,96,1.9,RU,1706672953
482,Palu,-0.8917,119.8707,304.54,65,88,1.8,ID,1706672953
483,Albardón,-31.4372,-68.5256,302.31,38,47,0.76,AR,1706672954
484,Novo Aripuanã,-5.1206,-60.3797,296.39,100,100,0.89,BR,1706672954
485,Laguna,38.421,-121.4238,290.31,72,0,3.6,US,1706672954
486,Gunsan,35.9786,126.7114,282.09,57,75,2.06,KR,1706672955
487,São João da Barra,-21.6403,-41.0511,297.75,95,100,0.23,BR,1706672955
488,Moyynkum,44.2914,72.9469,271.84,80,100,5.56,KZ,1706672956
489,Tobol'sk,58.2,68.2667,258.18,96,100,4.26,RU,1706672956
490,Thai Nguyen,21.5928,105.8442,290.03,86,100,0.64,VN,1706672957
491,Paradip,20.3167,86.6167,298.3,61,25,3.53,IN,1706672957
492,Desvres,50.6688,1.8348,279.57,90,73,2.64,FR,1706672958
493,Woodlake,37.4211,-77.6793,277.04,80,0,3.09,US,1706672966
494,Kuala Tungkal,-0.8167,103.4667,302.41,66,91,2.46,ID,1706672967
495,Stuttgart,48.7823,9.177,281.87,86,100,1.54,DE,1706672967
496,Jayapura,-2.5333,140.7,304.81,75,98,3.93,ID,1706672968
497,Marsa Alam,25.0757,34.8918,286.52,40,1,4.22,EG,1706672917
498,Rock Springs,41.5875,-109.2029,275.84,89,0,0.0,US,1706672969
499,Bryne,58.7354,5.6477,277.58,96,75,4.12,NO,1706672970
500,Miyako,39.6367,141.9525,282.87,55,98,4.15,JP,1706672970
501,Charcas,23.1333,-101.1167,285.7,54,100,2.45,MX,1706672971
502,Loreto,22.2667,-101.9667,288.35,43,100,0.19,MX,1706672971
503,Guajará-Mirim,-10.7828,-65.3394,298.45,87,100,1.08,BR,1706672972
504,Chubek,37.6137,69.7061,277.19,76,100,2.85,TJ,1706672972
505,Ganye,8.4333,12.0667,293.42,24,15,0.87,NG,1706672973
506,Angaur State,6.906,134.13,300.81,83,85,10.08,PW,1706672973
507,Soufrière,13.8562,-61.0566,298.93,95,20,4.12,LC,1706672974
508,Whangarei,-35.7317,174.3239,298.6,58,55,1.95,NZ,1706672974
509,Abqaiq,25.9371,49.6776,291.72,60,43,1.36,SA,1706672976
510,São Miguel do Araguaia,-13.275,-50.1628,295.74,94,84,1.62,BR,1706672976
511,Chamdo,31.1667,97.2333,266.94,30,86,3.8,CN,1706672977
512,Georgīevka,49.3314,81.5761,262.39,91,100,4.82,KZ,1706672977
513,El Jadida,33.2549,-8.506,289.61,63,100,3.27,MA,1706672978
514,Hard Bargain,26.3167,-77.5667,293.4,51,100,1.08,BS,1706672979
515,Sanctuary Point,-35.1114,150.629,295.92,88,100,4.67,AU,1706672979
516,Amahai,-3.3333,128.9167,303.87,64,51,2.96,ID,1706672980
517,Fomboni,-12.28,43.7425,301.29,71,100,2.6,KM,1706672980
518,Cabo San Lucas,22.8909,-109.9124,297.88,75,75,0.0,MX,1706672428
519,Giżycko,54.0381,21.7644,274.58,84,100,4.14,PL,1706672981
520,Puerto Cabezas,14.0351,-83.3888,295.97,81,29,4.97,NI,1706672982
521,Meads,38.4126,-82.7091,277.95,93,100,1.54,US,1706672982
522,Bulawayo,-20.15,28.5833,289.24,74,3,4.65,ZW,1706672983
523,Beryozovo,63.9381,65.0419,258.83,97,100,2.08,RU,1706672983
524,Nova Olinda do Norte,-3.8881,-59.0942,297.33,97,98,1.22,BR,1706672984
525,Aban,56.67,96.06,248.19,92,11,2.15,RU,1706672985
526,Damboa,11.156,12.7576,290.83,38,0,3.09,NG,1706672985
527,Loukhi,66.0764,33.0381,271.04,81,41,5.97,RU,1706672985
528,Leava,-14.3,-178.1667,302.36,84,92,7.44,WF,1706672986
529,Al Mijlad,11.0333,27.7333,289.04,20,52,5.72,SD,1706672986
530,Alofi,-19.0595,-169.9187,300.65,83,100,6.93,NU,1706672878
531,Tofol,5.3248,163.0078,304.03,70,75,5.14,FM,1706672987
532,Sinabang,2.4803,96.3801,302.5,70,86,1.69,ID,1706672885
533,Bridlington,54.0831,-0.1919,276.56,90,56,2.24,GB,1706672988
534,Bhamo,24.2667,97.2333,295.41,41,86,1.02,MM,1706672988
535,Mörön,49.6342,100.1625,252.72,89,16,0.89,MN,1706672989
536,Goianira,-16.4961,-49.4264,298.05,84,83,1.0,BR,1706672989
537,Zambezi,-13.5432,23.1047,290.47,96,30,1.65,ZM,1706672990
538,Hasaki,35.7333,140.8333,288.31,49,27,5.06,JP,1706672990
539,Kamina,-8.7386,24.9906,290.29,96,89,1.11,CD,1706672991
540,Kimbe,-5.5502,150.1429,303.22,70,51,2.9,PG,1706672991
541,Brookings,44.3114,-96.7984,274.47,96,0,4.12,US,1706672991
542,San Sebastián de La Gomera,28.0916,-17.1133,295.35,18,0,0.51,ES,1706672992
543,Inhambane,-23.865,35.3833,296.14,100,75,1.54,MZ,1706672963
544,Wauchope,-31.45,152.7333,300.91,55,69,3.51,AU,1706672993
545,Pemangkat,1.1667,108.9667,301.57,75,100,2.54,ID,1706672994
546,Alamosa,37.4695,-105.87,274.14,60,0,1.54,US,1706672880
547,Liberal,37.0431,-100.921,279.23,70,0,2.57,US,1706672994
548,Cologne,50.9333,6.95,280.91,85,100,3.6,DE,1706672730
549,Revda,56.801,59.9303,262.57,97,94,2.06,RU,1706672995
550,Gao,16.6362,1.637,289.65,21,13,5.77,ML,1706672996
551,Tampakan,6.4442,124.9264,300.31,98,100,0.61,PH,1706672996
552,Kavalerovo,44.2661,135.0572,273.45,77,100,0.45,RU,1706672997
553,Ta`ū,-14.2336,-169.5144,302.36,71,78,2.96,AS,1706672997
554,Fortuna,40.5982,-124.1573,292.79,37,75,13.89,US,1706672998
555,Kavieng,-2.5744,150.7967,302.27,73,95,3.85,PG,1706672998
556,Shahr-e Bābak,30.1165,55.1186,277.14,63,12,0.4,IR,1706672998
557,Jabat,7.75,168.9751,299.3,88,100,13.81,MH,1706672999
558,Margate,51.3813,1.3862,280.2,91,66,0.89,GB,1706672999
559,Moa,20.6569,-74.9403,295.61,68,98,2.85,CU,1706673000
560,Urangan,-25.3,152.9,302.15,78,100,6.26,AU,1706673000
